{
  "locations": [
    {
      "id": "1",
      "title": "Mayadevi Temple",
      "lat": 27.4692744,
      "long": 83.2783004,
      "district": "Nepal",
      "routes": [
        {
          "from": "Gaya",
          "to": "Mayadevi Temple",
          "distanceKm": 16,
          "distanceMiles": 10
        }
      ]
    },
    {
      "id": "2",
      "title": "Rajgir",
      "lat": 25.0110,
      "long": 85.4200,
      "district": "Nalanda, Bihar",
      "routes": [
        {
          "from": "Bodh Gaya",
          "to": "Rajgir",
          "distanceKm": 78,
          "distanceMiles": 48
        }
      ]
    },
    {
      "id": "3",
      "title": "Nalanda",
      "lat": 25.1365,
      "long": 85.4436,
      "district": "Nalanda, Bihar",
      "routes": [
        {
          "from": "Rajgir",
          "to": "Nalanda",
          "distanceKm": 12,
          "distanceMiles": 7.5
        }
      ]
    },
    {
      "id": "4",
      "title": "Sarnath",
      "lat": 25.3816,
      "long": 83.0213,
      "district": "Varanasi, Uttar Pradesh",
      "routes": [
        {
          "from": "Bodh Gaya",
          "to": "Sarnath",
          "distanceKm": 250,
          "distanceMiles": 155
        }
      ]
    },
    {
      "id": "5",
      "title": "Kushinagar",
      "lat": 26.7400,
      "long": 83.8889,
      "district": "Kushinagar, Uttar Pradesh",
      "routes": [
        {
          "from": "Sarnath",
          "to": "Kushinagar",
          "distanceKm": 275,
          "distanceMiles": 171
        }
      ]
    },
    {
      "id": "6",
      "title": "Shravasti",
      "lat": 27.5117,
      "long": 82.0506,
      "district": "Shravasti, Uttar Pradesh",
      "routes": [
        {
          "from": "Kushinagar",
          "to": "Shravasti",
          "distanceKm": 170,
          "distanceMiles": 106
        }
      ]
    },
    {
      "id": "7",
      "title": "Vaishali",
      "lat": 25.9937,
      "long": 85.1316,
      "district": "Vaishali, Bihar",
      "routes": [
        {
          "from": "Rajgir",
          "to": "Vaishali",
          "distanceKm": 75,
          "distanceMiles": 47
        }
      ]
    }
  ]
}
