{
  "locations": [
    {
      "id": "1",
      "title": "Mayadevi Temple",
      "lat": 27.4692744,
      "long": 83.2783004,
      "district": "Nepal",
      "routes": [
        {
          "from": "Gaya",
          "to": "Mayadevi Temple",
          "distanceKm": 16,
          "distanceMiles": 10
        }
      ]
    },
    {
      "id": "2",
      "title": "ဓမ္မရာဇိကစေတီ",
      "lat": 25.3811141,
      "long":83.0205059,
      "district": "Sarnath, Varanasi, Uttar Pradesh",
      "routes": [
        {
          "from": "Bodh Gaya",
          "to": "Varanasi",
          "distanceKm": 78,
          "distanceMiles": 48
        }
      ]
    },
    {
      "id": "3",
      "title": "ဓမ္မေခ စေတီ",
      "lat": 25.3809158,
      "long": 83.0217811,
      "district": "Sarnath, Varanasi, Uttar Pradesh",
      "routes": [
        {
          "from": "Gaya",
          "to": "Sarnath",
          "distanceKm": 12,
          "distanceMiles": 7.5
        }
      ]
    },
    {
      "id": "4",
      "title": "Chaukhandi Stupa",
      "lat": 25.3740104,
      "long": 83.0235262,
      "district": "Sarnath,Varanasi, Uttar Pradesh",
      "routes": [
        {
          "from": "Bodh Gaya",
          "to": "Sarnath",
          "distanceKm": 250,
          "distanceMiles": 155
        }
      ]
    },
    {
      "id": "5",
      "title": "(မဟာဗောဓိစေတီတော်)Maharbodhi Temple",
      "lat": 24.6959814,
      "long": 84.9912397,
      "district": "Bodhgaya, Bihar",
      "routes": [
        {
          "from": "Sarnath",
          "to": "Bodhgaya",
          "distanceKm": 275,
          "distanceMiles": 171
        }
      ]
    },
    {
      "id": "6",
      "title": "သုဇာတာ ဃနာနို့ဆွမ်းကပ်လှူရာ(Sujata Temple)",
      "lat": 24.6960939,
      "long": 85.0079973,
      "district": "Gaya,Bihar",
      "routes": [
        {
          "from": "Mahar Bodhi Temple",
          "to": "Sujata Temple",
          "distanceKm": 170,
          "distanceMiles": 106
        }
      ]
    },
    {
      "id": "7",
      "title": "ရွှေခွက်မျှောရာနေရာ(Buddha Bowl Floating Temple)",
      "lat": 24.6969433,
      "long":85.0092006,
      "district": "Bihar",
      "routes": [
        {
          "from": "Mahar Bodhi Temple",
          "to": "Buddha Bowl Floating Temple",
          "distanceKm": 75,
          "distanceMiles": 47
        }
      ]
    }
  ]
}
